address,city,zipcode,beds,baths,sqft,market_rent,lat,lng,districtMatch,value,percentFreeDiscLunch,percentofAfricanAmericanStudents,percentofAsianStudents,percentofHispanicStudents,percentofIndianStudents,percentofPacificIslanderStudents,percentofTwoOrMoreRaceStudents,percentofWhiteStudents,rankMovement,"Median household income (in 2019 dollars), 2015-2019",beds_3,beds_4,beds_5,baths_2,baths_3,baths_4
10265 Quail St,Westminster,80021,3,2,1437,2582.0,39.8823,-105.1249,Jefferson County R-1 School District,481565.0,37.16,1.45,2.89,26.14,0.62,0.14,4.07,64.7,-23.29,76142.0,1,0,0,1,0,0
10433 Holland Pl,Westminster,80021,3,2,1144,2199.0,39.8825,-105.10441,Jefferson County R-1 School District,452333.33,37.16,1.45,2.89,26.14,0.62,0.14,4.07,64.7,-23.29,76142.0,1,0,0,1,0,0
10545 Hoyt St,Westminster,80021,3,2,1296,2351.0,39.8882,-105.10326,Jefferson County R-1 School District,490234.95,37.16,1.45,2.89,26.14,0.62,0.14,4.07,64.7,-23.29,76142.0,1,0,0,1,0,0
11348 Lamar St,Westminster,80020,3,3,1820,2640.0,39.902,-105.066,Jefferson County R-1 School District,406666.67,37.16,1.45,2.89,26.14,0.62,0.14,4.07,64.7,-23.29,76142.0,1,0,0,0,1,0
5798 W 110th Ave,Westminster,80020,4,2,1975,2650.0,39.897,-105.061,Jefferson County R-1 School District,508333.33,37.16,1.45,2.89,26.14,0.62,0.14,4.07,64.7,-23.29,76142.0,0,1,0,1,0,0
6324 W 92nd Pl,Westminster,80031,4,2,1920,2760.0,39.864,-105.067,Jefferson County R-1 School District,404833.33,37.16,1.45,2.89,26.14,0.62,0.14,4.07,64.7,-23.29,76142.0,0,1,0,1,0,0
8945 Field St #64,Westminster,80021,2,2,1340,2095.0,39.85907,-105.09907,Jefferson County R-1 School District,301333.33,37.16,1.45,2.89,26.14,0.62,0.14,4.07,64.7,-23.29,76142.0,0,0,0,1,0,0
9174 Lander St,Westminster,80031,3,2,1850,2595.0,39.86244,-105.03037,Westminster 50 School District,408000.0,80.55,1.94,3.94,74.73,0.68,0.59,2.25,15.88,-19.69,76142.0,1,0,0,1,0,0
8141 Stuart St,Westminster,80031,3,2,1802,2497.0,39.84399,-105.04689,Westminster 50 School District,423333.33,80.55,1.94,3.94,74.73,0.68,0.59,2.25,15.88,-19.69,76142.0,1,0,0,1,0,0
8011 Stuart Pl,Westminster,80031,3,2,1920,2550.0,39.84268,-105.04667,Westminster 50 School District,396666.67,80.55,1.94,3.94,74.73,0.68,0.59,2.25,15.88,-19.69,76142.0,1,0,0,1,0,0
10744 Moore Cir,Westminster,80021,3,2,1632,2475.0,39.89202,-105.11254,Jefferson County R-1 School District,423000.0,37.16,1.45,2.89,26.14,0.62,0.14,4.07,64.7,-23.29,76142.0,1,0,0,1,0,0
9200 Newton St,Westminster,80031,3,2,2262,2745.0,39.86451,-105.03621,Westminster 50 School District,440114.75,80.55,1.94,3.94,74.73,0.68,0.59,2.25,15.88,-19.69,76142.0,1,0,0,1,0,0
6424 W 115th Ave,Westminster,80020,3,2,1344,2199.0,39.90394,-105.06804,Jefferson County R-1 School District,448300.0,37.16,1.45,2.89,26.14,0.62,0.14,4.07,64.7,-23.29,76142.0,1,0,0,1,0,0
13474 Raritan Way,Westminster,80234,3,2,1725,2751.0,39.93982,-105.00973,Adams 12 Five Star Schools,505000.0,47.39,1.91,4.73,47.0,0.55,0.14,3.32,42.36,-23.4,76142.0,1,0,0,1,0,0
10820 Utica Ct,Westminster,80031,3,2,1509,2550.0,39.89445,-105.04502,Adams 12 Five Star Schools,480000.0,47.39,1.91,4.73,47.0,0.55,0.14,3.32,42.36,-23.4,76142.0,1,0,0,1,0,0
13561 Vallejo St,Westminster,80234,3,2,1407,2325.0,39.94125,-105.01434,Adams 12 Five Star Schools,486666.67,47.39,1.91,4.73,47.0,0.55,0.14,3.32,42.36,-23.4,76142.0,1,0,0,1,0,0
8956 W 88th Pl,Westminster,80021,3,2,1325,2300.0,39.85753,-105.09709,Jefferson County R-1 School District,346633.33,37.16,1.45,2.89,26.14,0.62,0.14,4.07,64.7,-23.29,76142.0,1,0,0,1,0,0
9131 Judson St,Westminster,80031,4,2,1800,2605.0,39.86246,-105.02907,Westminster 50 School District,426633.33,80.55,1.94,3.94,74.73,0.68,0.59,2.25,15.88,-19.69,76142.0,0,1,0,1,0,0
9434 Brentwood St,Westminster,80021,3,2,1915,2615.0,39.87,-105.09,Jefferson County R-1 School District,548333.33,37.16,1.45,2.89,26.14,0.62,0.14,4.07,64.7,-23.29,76142.0,1,0,0,1,0,0
9731 W 104th Dr,Westminster,80021,3,2,1144,2345.0,39.884,-105.107,Jefferson County R-1 School District,396666.67,37.16,1.45,2.89,26.14,0.62,0.14,4.07,64.7,-23.29,76142.0,1,0,0,1,0,0
7025 Zenobia St,Westminster,80030,4,2,1904,2831.0,39.82508,-105.05287,Westminster 50 School District,461624.33,80.55,1.94,3.94,74.73,0.68,0.59,2.25,15.88,-19.69,76142.0,0,1,0,1,0,0
11062 Wolff Way,Westminster,80031,3,3,2142,2845.0,39.8973,-105.04747,Adams 12 Five Star Schools,567055.0,47.39,1.91,4.73,47.0,0.55,0.14,3.32,42.36,-23.4,76142.0,1,0,0,0,1,0
8955 Cody Ct,Westminster,80021,4,2,1584,2522.0,39.86043,-105.09449,Jefferson County R-1 School District,411760.0,37.16,1.45,2.89,26.14,0.62,0.14,4.07,64.7,-23.29,76142.0,0,1,0,1,0,0
10627 Kittredge St,Commerce City,80022,3,3,1993,2939.0,39.88982,-104.80151,Brighton 27J School District,503300.0,44.03,2.2,2.92,53.74,0.31,0.17,3.0,37.65,-48.06,77065.0,1,0,0,0,1,0
11375 Nome St,Commerce City,80640,4,2,2087,2595.0,39.90208,-104.85186,Brighton 27J School District,495000.0,44.03,2.2,2.92,53.74,0.31,0.17,3.0,37.65,-48.06,77065.0,0,1,0,1,0,0
11620 Oakland Dr,Commerce City,80640,3,2,1420,2300.0,39.90825,-104.84968,Brighton 27J School District,376666.67,44.03,2.2,2.92,53.74,0.31,0.17,3.0,37.65,-48.06,77065.0,1,0,0,1,0,0
10705 Clermont St,Thornton,80233,3,2,1544,2529.0,39.89058,-104.93351,Adams 12 Five Star Schools,418283.33,47.39,1.91,4.73,47.0,0.55,0.14,3.32,42.36,-23.4,79411.0,1,0,0,1,0,0
10874 Fairfax Way,Thornton,80233,4,2,1904,2599.0,39.89348,-104.92838,Adams 12 Five Star Schools,431633.33,47.39,1.91,4.73,47.0,0.55,0.14,3.32,42.36,-23.4,79411.0,0,1,0,1,0,0
10944 Bellaire Way,Thornton,80233,4,2,1800,2485.0,39.89548,-104.93625,Adams 12 Five Star Schools,428333.33,47.39,1.91,4.73,47.0,0.55,0.14,3.32,42.36,-23.4,79411.0,0,1,0,1,0,0
11111 Dahlia Way,Thornton,80233,3,2,1320,2300.0,39.89845,-104.92869,Adams 12 Five Star Schools,429149.45,47.39,1.91,4.73,47.0,0.55,0.14,3.32,42.36,-23.4,79411.0,1,0,0,1,0,0
12823 Cherry Way,Thornton,80241,4,3,2484,2775.0,39.92966,-104.93441,Adams 12 Five Star Schools,443000.0,47.39,1.91,4.73,47.0,0.55,0.14,3.32,42.36,-23.4,79411.0,0,1,0,0,1,0
13368 Birch Cir,Thornton,80241,3,2,1270,2250.0,39.93781,-104.93588,Adams 12 Five Star Schools,451935.0,47.39,1.91,4.73,47.0,0.55,0.14,3.32,42.36,-23.4,79411.0,1,0,0,1,0,0
1751 E 96th Pl,Thornton,80229,3,3,1510,2485.0,39.87218,-104.96618,Mapleton 1 School District,405445.0,51.25,0.92,1.49,65.61,0.51,0.1,1.73,9.64,-14.8,79411.0,1,0,0,0,1,0
2676 E 117th Way,Thornton,80233,4,2,2142,2782.0,39.90905,-104.95226,Adams 12 Five Star Schools,468333.33,47.39,1.91,4.73,47.0,0.55,0.14,3.32,42.36,-23.4,79411.0,0,1,0,1,0,0
5225 E 123rd Ave,Thornton,80241,5,2,1792,2685.0,39.91904,-104.92548,Adams 12 Five Star Schools,441633.33,47.39,1.91,4.73,47.0,0.55,0.14,3.32,42.36,-23.4,79411.0,0,0,1,1,0,0
5305 E 108th Pl,Thornton,80233,4,2,1704,2418.0,39.893,-104.92445,Adams 12 Five Star Schools,406333.33,47.39,1.91,4.73,47.0,0.55,0.14,3.32,42.36,-23.4,79411.0,0,1,0,1,0,0
9729 Detroit St,Thornton,80229,4,2,2022,2550.0,39.87234,-104.95237,Mapleton 1 School District,351600.0,51.25,0.92,1.49,65.61,0.51,0.1,1.73,9.64,-14.8,79411.0,0,1,0,1,0,0
10104 Hudson Ct,Thornton,80229,3,2,1415,2321.0,39.88089,-104.92287,Adams County 14 School District,366995.0,83.17,2.39,0.14,85.35,0.46,0.13,1.01,10.52,-5.56,79411.0,1,0,0,1,0,0
9836 Milwaukee St,Thornton,80229,4,2,1840,2574.0,39.87505,-104.95075,Mapleton 1 School District,404390.0,51.25,0.92,1.49,65.61,0.51,0.1,1.73,9.64,-14.8,79411.0,0,1,0,1,0,0
9954 Columbine St,Thornton,80229,5,2,2022,2510.0,39.87702,-104.95707,Mapleton 1 School District,455000.0,51.25,0.92,1.49,65.61,0.51,0.1,1.73,9.64,-14.8,79411.0,0,0,1,1,0,0
5252 E 111th Pl,Thornton,80233,3,2,2230,2850.0,39.89775,-104.92555,Adams 12 Five Star Schools,432966.67,47.39,1.91,4.73,47.0,0.55,0.14,3.32,42.36,-23.4,79411.0,1,0,0,1,0,0
12386 Roslyn Way,Thornton,80602,3,3,4198,3385.0,39.92025,-104.89972,Brighton 27J School District,669933.33,44.03,2.2,2.92,53.74,0.31,0.17,3.0,37.65,-48.06,79411.0,1,0,0,0,1,0
12116 Grape St,Thornton,80241,4,3,1813,2390.0,39.91627,-104.92404,Adams 12 Five Star Schools,465333.33,47.39,1.91,4.73,47.0,0.55,0.14,3.32,42.36,-23.4,79411.0,0,1,0,0,1,0
13340 Cherry Cir,Thornton,80241,4,4,2036,2735.0,39.938,-104.93421,Adams 12 Five Star Schools,457385.0,47.39,1.91,4.73,47.0,0.55,0.14,3.32,42.36,-23.4,79411.0,0,1,0,0,0,1
9074 Moon Cir,Thornton,80229,3,1,1140,2145.0,39.86093,-104.95744,Mapleton 1 School District,373564.95,51.25,0.92,1.49,65.61,0.51,0.1,1.73,9.64,-14.8,79411.0,1,0,0,0,0,0
5183 E 119th Way,Thornton,80233,3,3,1405,2600.0,39.91292,-104.92692,Adams 12 Five Star Schools,416633.33,47.39,1.91,4.73,47.0,0.55,0.14,3.32,42.36,-23.4,79411.0,1,0,0,0,1,0
11039 Grange Creek Dr,Thornton,80233,4,2,1885,2845.0,39.89594,-104.92393,Adams 12 Five Star Schools,414553.35,47.39,1.91,4.73,47.0,0.55,0.14,3.32,42.36,-23.4,79411.0,0,1,0,1,0,0
5202 E 119th Ct,Thornton,80233,3,3,1405,2429.0,39.91321,-104.92593,Adams 12 Five Star Schools,429015.0,47.39,1.91,4.73,47.0,0.55,0.14,3.32,42.36,-23.4,79411.0,1,0,0,0,1,0
12426 Dexter St,Thornton,80241,3,3,1549,2625.0,39.92233,-104.93305,Adams 12 Five Star Schools,383217.5,47.39,1.91,4.73,47.0,0.55,0.14,3.32,42.36,-23.4,79411.0,1,0,0,0,1,0
3663 E 133rd Ct,Thornton,80241,3,3,2240,2500.0,39.93676,-104.94433,Adams 12 Five Star Schools,505135.0,47.39,1.91,4.73,47.0,0.55,0.14,3.32,42.36,-23.4,79411.0,1,0,0,0,1,0
9764 Columbine Ct,Thornton,80229,4,2,1908,2665.0,39.87324,-104.95627,Mapleton 1 School District,405460.0,51.25,0.92,1.49,65.61,0.51,0.1,1.73,9.64,-14.8,79411.0,0,1,0,1,0,0
10062 Milwaukee St,Thornton,80229,3,3,1591,2545.0,39.87842,-104.95208,Mapleton 1 School District,405185.0,51.25,0.92,1.49,65.61,0.51,0.1,1.73,9.64,-14.8,79411.0,1,0,0,0,1,0
16430 Race St,Thornton,80602,3,3,1672,2675.0,39.99459,-104.962,Adams 12 Five Star Schools,544649.0,47.39,1.91,4.73,47.0,0.55,0.14,3.32,42.36,-23.4,79411.0,1,0,0,0,1,0
11120 Sylvan Pl,Parker,80138,3,2,1387,2549.0,39.51228,-104.74424,Douglas County RE 1 School District,516900.0,10.78,1.29,4.64,13.59,0.41,0.11,5.69,74.28,10.24,110936.0,1,0,0,1,0,0
17739 Biscuit Root Dr,Parker,80134,4,3,1670,2178.0,39.55575,-104.78287,Douglas County RE 1 School District,405000.0,10.78,1.29,4.64,13.59,0.41,0.11,5.69,74.28,10.24,110936.0,0,1,0,0,1,0
6243 Westview Cir,Parker,80134,5,3,2364,2737.0,39.4395,-104.77038,Douglas County RE 1 School District,516300.0,10.78,1.29,4.64,13.59,0.41,0.11,5.69,74.28,10.24,110936.0,0,0,1,0,1,0
16823 Blue Mist Cir,Parker,80134,3,2,2176,2575.0,39.56166,-104.79365,Douglas County RE 1 School District,402000.0,10.78,1.29,4.64,13.59,0.41,0.11,5.69,74.28,10.24,110936.0,1,0,0,1,0,0
12858 Capital Creek St,Parker,80134,3,3,2085,2814.0,39.48156,-104.77473,Douglas County RE 1 School District,502333.33,10.78,1.29,4.64,13.59,0.41,0.11,5.69,74.28,10.24,110936.0,1,0,0,0,1,0
8497 Wild Alfalfa Pl,Parker,80134,4,2,1668,2300.0,39.56277,-104.79805,Douglas County RE 1 School District,428333.33,10.78,1.29,4.64,13.59,0.41,0.11,5.69,74.28,10.24,110936.0,0,1,0,1,0,0
8485 Prairie Clover Way,Parker,80134,3,2,1576,2330.0,39.56301,-104.79547,Douglas County RE 1 School District,391333.33,10.78,1.29,4.64,13.59,0.41,0.11,5.69,74.28,10.24,110936.0,1,0,0,1,0,0
12586 Country Meadows Dr,Parker,80134,3,3,1548,2345.0,39.49641,-104.76361,Douglas County RE 1 School District,499966.67,10.78,1.29,4.64,13.59,0.41,0.11,5.69,74.28,10.24,110936.0,1,0,0,0,1,0
11303 Haswell Ct,Parker,80134,4,3,1687,2595.0,39.51924,-104.78172,Douglas County RE 1 School District,574633.33,10.78,1.29,4.64,13.59,0.41,0.11,5.69,74.28,10.24,110936.0,0,1,0,0,1,0
10414 Strasburg Way,Parker,80134,3,4,2104,2770.0,39.52784,-104.7872,Douglas County RE 1 School District,517655.0,10.78,1.29,4.64,13.59,0.41,0.11,5.69,74.28,10.24,110936.0,1,0,0,0,0,1
10414 Strasburg Way,Parker,80134,3,4,2104,2686.0,39.52784,-104.7872,Douglas County RE 1 School District,517655.0,10.78,1.29,4.64,13.59,0.41,0.11,5.69,74.28,10.24,110936.0,1,0,0,0,0,1
8661 Red Clover Ct,Parker,80134,3,2,1490,2446.0,39.55985,-104.79983,Douglas County RE 1 School District,459516.35,10.78,1.29,4.64,13.59,0.41,0.11,5.69,74.28,10.24,110936.0,1,0,0,1,0,0
8736 Greengrass Way,Parker,80134,3,2,1471,2450.0,39.55807,-104.79421,Douglas County RE 1 School District,430000.0,10.78,1.29,4.64,13.59,0.41,0.11,5.69,74.28,10.24,110936.0,1,0,0,1,0,0
8738 Snowbird Way,Parker,80134,3,3,1307,2380.0,39.55829,-104.79605,Douglas County RE 1 School District,388266.67,10.78,1.29,4.64,13.59,0.41,0.11,5.69,74.28,10.24,110936.0,1,0,0,0,1,0
12757 S Red Rosa Cir,Parker,80134,3,3,2167,2890.0,39.485004,-104.783414,Douglas County RE 1 School District,610161.0,10.78,1.29,4.64,13.59,0.41,0.11,5.69,74.28,10.24,110936.0,1,0,0,0,1,0
12831 Billingsley Trl,Parker,80134,4,3,1892,2732.0,39.482911,-104.787269,Douglas County RE 1 School District,527895.8,10.78,1.29,4.64,13.59,0.41,0.11,5.69,74.28,10.24,110936.0,0,1,0,0,1,0
11333 E Warren Ave,Aurora,80014,4,4,2944,2949.0,39.67681,-104.85519,Cherry Creek 5 School District,499005.0,31.32,10.96,8.53,21.0,0.58,0.26,8.19,50.48,-29.53,65100.0,0,1,0,0,0,1
11845 E Kepner Dr,Aurora,80012,2,3,1064,2095.0,39.69852,-104.85037,Cherry Creek 5 School District,347966.67,31.32,10.96,8.53,21.0,0.58,0.26,8.19,50.48,-29.53,65100.0,0,0,0,0,1,0
12156 E Louisiana Dr,Aurora,80012,4,3,2625,2645.0,39.69204,-104.84547,Adams-Arapahoe 28J School District,455000.0,77.81,16.37,5.28,55.53,0.74,1.07,6.08,14.92,-39.37,65100.0,0,1,0,0,1,0
1307 S Biscay St,Aurora,80017,3,2,1100,2129.0,39.69217,-104.76876,Adams-Arapahoe 28J School District,339359.65,77.81,16.37,5.28,55.53,0.74,1.07,6.08,14.92,-39.37,65100.0,1,0,0,1,0,0
1441 S Cathay St,Aurora,80017,3,2,1192,2197.0,39.68851,-104.76623,Adams-Arapahoe 28J School District,351990.0,77.81,16.37,5.28,55.53,0.74,1.07,6.08,14.92,-39.37,65100.0,1,0,0,1,0,0
14705 E Harvard Ave,Aurora,80014,3,2,1327,2358.0,39.67106,-104.81664,Adams-Arapahoe 28J School District,415333.33,77.81,16.37,5.28,55.53,0.74,1.07,6.08,14.92,-39.37,65100.0,1,0,0,1,0,0
15381 E Arkansas Pl,Aurora,80017,3,2,1296,2200.0,39.69101,-104.80859,Adams-Arapahoe 28J School District,316666.67,77.81,16.37,5.28,55.53,0.74,1.07,6.08,14.92,-39.37,65100.0,1,0,0,1,0,0
1597 S Uvalda St,Aurora,80012,4,2,1976,2604.0,39.68714,-104.83808,Adams-Arapahoe 28J School District,393300.0,77.81,16.37,5.28,55.53,0.74,1.07,6.08,14.92,-39.37,65100.0,0,1,0,1,0,0
17486 E Temple Dr,Aurora,80015,3,2,1200,2256.0,39.63158,-104.78496,Cherry Creek 5 School District,380232.5,31.32,10.96,8.53,21.0,0.58,0.26,8.19,50.48,-29.53,65100.0,1,0,0,1,0,0
17766 E Arizona Ave,Aurora,80017,3,2,888,2350.0,39.6935,-104.77965,Adams-Arapahoe 28J School District,347684.5,77.81,16.37,5.28,55.53,0.74,1.07,6.08,14.92,-39.37,65100.0,1,0,0,1,0,0
18290 E Hampden Pl,Aurora,80013,5,4,2900,3095.0,39.65272,-104.77647,Cherry Creek 5 School District,426600.0,31.32,10.96,8.53,21.0,0.58,0.26,8.19,50.48,-29.53,65100.0,0,0,1,0,0,1
18524 E Layton Pl,Aurora,80015,5,2,1736,2845.0,39.62718,-104.77315,Cherry Creek 5 School District,377333.33,31.32,10.96,8.53,21.0,0.58,0.26,8.19,50.48,-29.53,65100.0,0,0,1,1,0,0
18753 E Utah Cir,Aurora,80017,4,3,1622,2550.0,39.68331,-104.76979,Adams-Arapahoe 28J School District,381666.67,77.81,16.37,5.28,55.53,0.74,1.07,6.08,14.92,-39.37,65100.0,0,1,0,0,1,0
19176 E Oberlin Dr,Aurora,80013,3,2,1800,2350.0,39.64047,-104.76544,Cherry Creek 5 School District,405270.0,31.32,10.96,8.53,21.0,0.58,0.26,8.19,50.48,-29.53,65100.0,1,0,0,1,0,0
19176 E Oberlin Dr,Aurora,80013,3,2,1800,2545.0,39.64047,-104.76544,Cherry Creek 5 School District,392966.67,31.32,10.96,8.53,21.0,0.58,0.26,8.19,50.48,-29.53,65100.0,1,0,0,1,0,0
19393 E Purdue Cir,Aurora,80013,3,1,1230,2125.0,39.63917,-104.76173,Cherry Creek 5 School District,405633.33,31.32,10.96,8.53,21.0,0.58,0.26,8.19,50.48,-29.53,65100.0,1,0,0,0,0,0
19554 E Amherst Dr,Aurora,80013,3,2,1408,2345.0,39.66632,-104.76032,Cherry Creek 5 School District,387482.45,31.32,10.96,8.53,21.0,0.58,0.26,8.19,50.48,-29.53,65100.0,1,0,0,1,0,0
19867 E Brunswick Dr,Aurora,80013,4,2,2281,2775.0,39.66537,-104.7571,Cherry Creek 5 School District,375000.0,31.32,10.96,8.53,21.0,0.58,0.26,8.19,50.48,-29.53,65100.0,0,1,0,1,0,0
19867 E Brunswick Dr,Aurora,80013,4,2,2281,2525.0,39.66537,-104.7571,Cherry Creek 5 School District,406837.5,31.32,10.96,8.53,21.0,0.58,0.26,8.19,50.48,-29.53,65100.0,0,1,0,1,0,0
2094 S Pagosa St,Aurora,80013,5,3,2032,2575.0,39.67825,-104.78999,Adams-Arapahoe 28J School District,449666.33,77.81,16.37,5.28,55.53,0.74,1.07,6.08,14.92,-39.37,65100.0,0,0,1,0,1,0
2774 S Cathay Way,Aurora,80013,4,4,2000,2645.0,39.6668,-104.7664,Cherry Creek 5 School District,455000.0,31.32,10.96,8.53,21.0,0.58,0.26,8.19,50.48,-29.53,65100.0,0,1,0,0,0,1
2853 S Biscay Ct,Aurora,80013,3,3,2175,2729.0,39.66289,-104.76883,Cherry Creek 5 School District,443333.33,31.32,10.96,8.53,21.0,0.58,0.26,8.19,50.48,-29.53,65100.0,1,0,0,0,1,0
2853 S Biscay Ct,Aurora,80013,3,3,2175,2650.0,39.66289,-104.76883,Cherry Creek 5 School District,438082.45,31.32,10.96,8.53,21.0,0.58,0.26,8.19,50.48,-29.53,65100.0,1,0,0,0,1,0
2861 S Genoa St,Aurora,80013,3,2,1920,2520.0,39.66526,-104.75811,Cherry Creek 5 School District,393000.0,31.32,10.96,8.53,21.0,0.58,0.26,8.19,50.48,-29.53,65100.0,1,0,0,1,0,0
2881 S Olathe Ct,Aurora,80013,4,3,1965,2540.0,39.66349,-104.79249,Adams-Arapahoe 28J School District,411633.33,77.81,16.37,5.28,55.53,0.74,1.07,6.08,14.92,-39.37,65100.0,0,1,0,0,1,0
2924 S Argonne St,Aurora,80013,3,2,1470,2525.0,39.66288,-104.76991,Cherry Creek 5 School District,408000.0,31.32,10.96,8.53,21.0,0.58,0.26,8.19,50.48,-29.53,65100.0,1,0,0,1,0,0
2924 S Argonne St,Aurora,80013,3,2,1470,2610.0,39.66288,-104.76991,Cherry Creek 5 School District,447637.45,31.32,10.96,8.53,21.0,0.58,0.26,8.19,50.48,-29.53,65100.0,1,0,0,1,0,0
2956 S Jasper St,Aurora,80013,4,2,2016,2585.0,39.66266,-104.8055,Adams-Arapahoe 28J School District,421633.33,77.81,16.37,5.28,55.53,0.74,1.07,6.08,14.92,-39.37,65100.0,0,1,0,1,0,0
3155 S Idalia St,Aurora,80013,4,2,1632,2550.0,39.65931,-104.80765,Adams-Arapahoe 28J School District,399402.3,77.81,16.37,5.28,55.53,0.74,1.07,6.08,14.92,-39.37,65100.0,0,1,0,1,0,0
3336 S Dunkirk Way,Aurora,80013,4,2,2328,2550.0,39.6553,-104.7621,Cherry Creek 5 School District,478333.33,31.32,10.96,8.53,21.0,0.58,0.26,8.19,50.48,-29.53,65100.0,0,1,0,1,0,0
3582 S Olathe St,Aurora,80013,3,2,2300,2700.0,39.65202,-104.79438,Cherry Creek 5 School District,385000.0,31.32,10.96,8.53,21.0,0.58,0.26,8.19,50.48,-29.53,65100.0,1,0,0,1,0,0
3680 S Danube Cir,Aurora,80013,3,3,1288,2375.0,39.64944,-104.76285,Cherry Creek 5 School District,303333.33,31.32,10.96,8.53,21.0,0.58,0.26,8.19,50.48,-29.53,65100.0,1,0,0,0,1,0
3757 S Danube Cir,Aurora,80013,3,3,1281,2298.0,39.64854,-104.7631,Cherry Creek 5 School District,366133.7,31.32,10.96,8.53,21.0,0.58,0.26,8.19,50.48,-29.53,65100.0,1,0,0,0,1,0
3806 S Ouray Way,Aurora,80013,3,2,1824,2515.0,39.64712,-104.79167,Cherry Creek 5 School District,432666.33,31.32,10.96,8.53,21.0,0.58,0.26,8.19,50.48,-29.53,65100.0,1,0,0,1,0,0
3884 S Truckee Ct,Aurora,80013,3,2,1732,2495.0,39.64293,-104.78044,Cherry Creek 5 School District,404966.67,31.32,10.96,8.53,21.0,0.58,0.26,8.19,50.48,-29.53,65100.0,1,0,0,1,0,0
4108 S Laredo Way,Aurora,80013,5,3,2240,2595.0,39.64186,-104.8008,Cherry Creek 5 School District,393333.33,31.32,10.96,8.53,21.0,0.58,0.26,8.19,50.48,-29.53,65100.0,0,0,1,0,1,0
4108 S Laredo Way,Aurora,80013,5,3,2240,2605.0,39.64186,-104.8008,Cherry Creek 5 School District,406182.5,31.32,10.96,8.53,21.0,0.58,0.26,8.19,50.48,-29.53,65100.0,0,0,1,0,1,0
4157 S Olathe Way,Aurora,80013,3,2,1742,2600.0,39.64136,-104.79427,Cherry Creek 5 School District,406666.67,31.32,10.96,8.53,21.0,0.58,0.26,8.19,50.48,-29.53,65100.0,1,0,0,1,0,0
453 S Nome Way,Aurora,80012,4,2,1628,2425.0,39.70764,-104.85356,Cherry Creek 5 School District,384833.33,31.32,10.96,8.53,21.0,0.58,0.26,8.19,50.48,-29.53,65100.0,0,1,0,1,0,0
4554 S Richfield St,Aurora,80015,3,2,1554,2245.0,39.633,-104.78606,Cherry Creek 5 School District,342657.5,31.32,10.96,8.53,21.0,0.58,0.26,8.19,50.48,-29.53,65100.0,1,0,0,1,0,0
4653 S Buckley Way,Aurora,80015,3,2,1170,2176.0,39.63168,-104.79043,Cherry Creek 5 School District,350000.0,31.32,10.96,8.53,21.0,0.58,0.26,8.19,50.48,-29.53,65100.0,1,0,0,1,0,0
4672 S Kittredge Way,Aurora,80015,3,2,1976,2549.0,39.63089,-104.80109,Cherry Creek 5 School District,384800.0,31.32,10.96,8.53,21.0,0.58,0.26,8.19,50.48,-29.53,65100.0,1,0,0,1,0,0
4752 S Yampa St,Aurora,80015,3,2,1689,2544.0,39.62884,-104.77537,Cherry Creek 5 School District,376467.5,31.32,10.96,8.53,21.0,0.58,0.26,8.19,50.48,-29.53,65100.0,1,0,0,1,0,0
4814 S Pagosa Way,Aurora,80015,3,2,1238,2505.0,39.62868,-104.78937,Cherry Creek 5 School District,414666.67,31.32,10.96,8.53,21.0,0.58,0.26,8.19,50.48,-29.53,65100.0,1,0,0,1,0,0
5003 S Richfield Cir,Aurora,80015,3,2,1238,2350.0,39.62658,-104.7871,Cherry Creek 5 School District,394000.0,31.32,10.96,8.53,21.0,0.58,0.26,8.19,50.48,-29.53,65100.0,1,0,0,1,0,0
5072 S Himalaya Ct,Aurora,80015,3,3,1500,2625.0,39.62423,-104.75255,Cherry Creek 5 School District,474605.0,31.32,10.96,8.53,21.0,0.58,0.26,8.19,50.48,-29.53,65100.0,1,0,0,0,1,0
5072 S Himalaya Ct,Aurora,80015,3,3,1500,2540.0,39.62423,-104.75255,Cherry Creek 5 School District,402600.0,31.32,10.96,8.53,21.0,0.58,0.26,8.19,50.48,-29.53,65100.0,1,0,0,0,1,0
2954 S Idalia St,Aurora,80013,4,2,1296,2490.0,39.66278,-104.80593,Adams-Arapahoe 28J School District,423266.67,77.81,16.37,5.28,55.53,0.74,1.07,6.08,14.92,-39.37,65100.0,0,1,0,1,0,0
4989 S Waco St,Aurora,80015,4,2,1548,2400.0,39.62646,-104.77713,Cherry Creek 5 School District,414370.0,31.32,10.96,8.53,21.0,0.58,0.26,8.19,50.48,-29.53,65100.0,0,1,0,1,0,0
16901 E Eastman Pl,Aurora,80013,3,2,1662,2285.0,39.65799,-104.79023,Adams-Arapahoe 28J School District,399657.33,77.81,16.37,5.28,55.53,0.74,1.07,6.08,14.92,-39.37,65100.0,1,0,0,1,0,0
5008 S Quintero Cir,Aurora,80015,4,2,1676,2448.0,39.6264,-104.78731,Cherry Creek 5 School District,304000.0,31.32,10.96,8.53,21.0,0.58,0.26,8.19,50.48,-29.53,65100.0,0,1,0,1,0,0
12774 E 31st Ave,Aurora,80011,3,2,2180,2580.0,39.75939,-104.84033,Adams-Arapahoe 28J School District,398333.0,77.81,16.37,5.28,55.53,0.74,1.07,6.08,14.92,-39.37,65100.0,1,0,0,1,0,0
12774 E 31st Ave,Aurora,80011,3,2,2180,2500.0,39.75939,-104.84033,Adams-Arapahoe 28J School District,400437.4,77.81,16.37,5.28,55.53,0.74,1.07,6.08,14.92,-39.37,65100.0,1,0,0,1,0,0
4258 S Pitkin St,Aurora,80013,3,2,1650,1950.0,39.63963,-104.78793,Cherry Creek 5 School District,383324.33,31.32,10.96,8.53,21.0,0.58,0.26,8.19,50.48,-29.53,65100.0,1,0,0,1,0,0
19336 E Amherst Dr,Aurora,80013,3,3,1968,2585.0,39.66596,-104.76226,Cherry Creek 5 School District,402999.67,31.32,10.96,8.53,21.0,0.58,0.26,8.19,50.48,-29.53,65100.0,1,0,0,0,1,0
3166 S Olathe Way,Aurora,80013,3,2,2048,2442.0,39.65927,-104.79247,Adams-Arapahoe 28J School District,420800.0,77.81,16.37,5.28,55.53,0.74,1.07,6.08,14.92,-39.37,65100.0,1,0,0,1,0,0
2416 S Memphis Way,Aurora,80013,4,2,1764,2415.0,39.67214,-104.79639,Adams-Arapahoe 28J School District,415600.0,77.81,16.37,5.28,55.53,0.74,1.07,6.08,14.92,-39.37,65100.0,0,1,0,1,0,0
3787 S Quintero Cir,Aurora,80013,4,2,1738,2530.0,39.64839,-104.78744,Cherry Creek 5 School District,481666.67,31.32,10.96,8.53,21.0,0.58,0.26,8.19,50.48,-29.53,65100.0,0,1,0,1,0,0
18274 E Bellewood Dr,Aurora,80015,3,3,2128,2913.0,39.62435,-104.77523,Cherry Creek 5 School District,428359.75,31.32,10.96,8.53,21.0,0.58,0.26,8.19,50.48,-29.53,65100.0,1,0,0,0,1,0
18551 E Tanforan Pl,Aurora,80015,2,2,1695,2590.0,39.62965,-104.7736,Cherry Creek 5 School District,424966.67,31.32,10.96,8.53,21.0,0.58,0.26,8.19,50.48,-29.53,65100.0,0,0,0,1,0,0
19106 E Carmel Cir,Aurora,80011,3,3,2148,2375.0,39.74906,-104.76429,Adams-Arapahoe 28J School District,399670.0,77.81,16.37,5.28,55.53,0.74,1.07,6.08,14.92,-39.37,65100.0,1,0,0,0,1,0
19106 E Carmel Cir,Aurora,80011,3,3,2148,2550.0,39.74906,-104.76429,Adams-Arapahoe 28J School District,390000.0,77.81,16.37,5.28,55.53,0.74,1.07,6.08,14.92,-39.37,65100.0,1,0,0,0,1,0
17898 E Arizona Ave,Aurora,80017,2,2,2012,2475.0,39.69421,-104.77842,Adams-Arapahoe 28J School District,295827.5,77.81,16.37,5.28,55.53,0.74,1.07,6.08,14.92,-39.37,65100.0,0,0,0,1,0,0
17898 E Arizona Ave,Aurora,80017,2,2,2012,2492.0,39.69421,-104.77842,Adams-Arapahoe 28J School District,247333.33,77.81,16.37,5.28,55.53,0.74,1.07,6.08,14.92,-39.37,65100.0,0,0,0,1,0,0
981 S Wheeling St,Aurora,80012,3,1,1416,2068.0,39.69783,-104.83438,Adams-Arapahoe 28J School District,380575.0,77.81,16.37,5.28,55.53,0.74,1.07,6.08,14.92,-39.37,65100.0,1,0,0,0,0,0
3804 S Rome Way,Aurora,80018,4,3,2349,2785.0,39.64753,-104.73028,Cherry Creek 5 School District,463333.33,31.32,10.96,8.53,21.0,0.58,0.26,8.19,50.48,-29.53,65100.0,0,1,0,0,1,0
206 N Coolidge Way,Aurora,80018,4,3,3114,3029.0,39.72117,-104.70905,Adams-Arapahoe 28J School District,529966.67,77.81,16.37,5.28,55.53,0.74,1.07,6.08,14.92,-39.37,65100.0,0,1,0,0,1,0
14679 E Radcliff Pl,Aurora,80015,5,2,2100,2650.0,39.6373,-104.81717,Cherry Creek 5 School District,493666.67,31.32,10.96,8.53,21.0,0.58,0.26,8.19,50.48,-29.53,65100.0,0,0,1,1,0,0
13157 E Dakota Ave,Aurora,80012,3,2,1679,2305.0,39.70836,-104.83612,Adams-Arapahoe 28J School District,433300.0,77.81,16.37,5.28,55.53,0.74,1.07,6.08,14.92,-39.37,65100.0,1,0,0,1,0,0
16166 E Exposition Dr,Aurora,80017,3,2,1920,2625.0,39.70348,-104.79943,Adams-Arapahoe 28J School District,408300.0,77.81,16.37,5.28,55.53,0.74,1.07,6.08,14.92,-39.37,65100.0,1,0,0,1,0,0
10530 E 10th Ave,Aurora,80010,3,3,2240,2590.0,39.73082,-104.86475,Adams-Arapahoe 28J School District,381666.67,77.81,16.37,5.28,55.53,0.74,1.07,6.08,14.92,-39.37,65100.0,1,0,0,0,1,0
17154 E Wagontrail Pkwy,Aurora,80015,3,2,1144,2475.0,39.62949,-104.78752,Cherry Creek 5 School District,388133.65,31.32,10.96,8.53,21.0,0.58,0.26,8.19,50.48,-29.53,65100.0,1,0,0,1,0,0
574 S Joplin St,Aurora,80017,3,2,1596,2295.0,39.70518,-104.80328,Adams-Arapahoe 28J School District,373175.0,77.81,16.37,5.28,55.53,0.74,1.07,6.08,14.92,-39.37,65100.0,1,0,0,1,0,0
574 S Joplin St,Aurora,80017,3,2,1596,2490.0,39.70518,-104.80328,Adams-Arapahoe 28J School District,411633.33,77.81,16.37,5.28,55.53,0.74,1.07,6.08,14.92,-39.37,65100.0,1,0,0,1,0,0
2655 Atchison St,Aurora,80011,3,2,1285,2085.0,39.75506,-104.82432,Adams-Arapahoe 28J School District,353966.67,77.81,16.37,5.28,55.53,0.74,1.07,6.08,14.92,-39.37,65100.0,1,0,0,1,0,0
14531 E Gunnison Pl,Aurora,80012,3,3,1868,2545.0,39.68879,-104.81826,Adams-Arapahoe 28J School District,379966.67,77.81,16.37,5.28,55.53,0.74,1.07,6.08,14.92,-39.37,65100.0,1,0,0,0,1,0
18895 E Utah Cir,Aurora,80017,3,2,1602,2445.0,39.68272,-104.76847,Adams-Arapahoe 28J School District,367333.33,77.81,16.37,5.28,55.53,0.74,1.07,6.08,14.92,-39.37,65100.0,1,0,0,1,0,0
15682 E Colorado Ave,Aurora,80017,3,2,1168,1995.0,39.6844,-104.80583,Adams-Arapahoe 28J School District,341666.67,77.81,16.37,5.28,55.53,0.74,1.07,6.08,14.92,-39.37,65100.0,1,0,0,1,0,0
4685 S Buckley Way,Aurora,80015,4,2,1692,2548.0,39.63168,-104.79043,Cherry Creek 5 School District,354340.0,31.32,10.96,8.53,21.0,0.58,0.26,8.19,50.48,-29.53,65100.0,0,1,0,1,0,0
17306 E Mansfield Ave,Aurora,80013,4,2,1569,2675.0,39.64554,-104.78758,Cherry Creek 5 School District,298333.33,31.32,10.96,8.53,21.0,0.58,0.26,8.19,50.48,-29.53,65100.0,0,1,0,1,0,0
22226 E Oberlin Pl,Aurora,80018,3,3,2998,2800.0,39.64165,-104.72837,Cherry Creek 5 School District,456300.0,31.32,10.96,8.53,21.0,0.58,0.26,8.19,50.48,-29.53,65100.0,1,0,0,0,1,0
3962 S Helena St,Aurora,80013,3,3,1900,2700.0,39.64402,-104.80711,Cherry Creek 5 School District,444000.0,31.32,10.96,8.53,21.0,0.58,0.26,8.19,50.48,-29.53,65100.0,1,0,0,0,1,0
3813 S Ceylon Way,Aurora,80013,4,2,1814,2495.0,39.64733,-104.76226,Cherry Creek 5 School District,352474.5,31.32,10.96,8.53,21.0,0.58,0.26,8.19,50.48,-29.53,65100.0,0,1,0,1,0,0
3604 S Flanders St,Aurora,80013,4,2,1862,2639.0,39.65063,-104.75707,Cherry Creek 5 School District,418330.0,31.32,10.96,8.53,21.0,0.58,0.26,8.19,50.48,-29.53,65100.0,0,1,0,1,0,0
3604 S Flanders St,Aurora,80013,4,2,1862,2585.0,39.65063,-104.75707,Cherry Creek 5 School District,426080.0,31.32,10.96,8.53,21.0,0.58,0.26,8.19,50.48,-29.53,65100.0,0,1,0,1,0,0
16265 E Hamilton Pl,Aurora,80013,4,2,2048,2690.0,39.65399,-104.79861,Adams-Arapahoe 28J School District,393560.0,77.81,16.37,5.28,55.53,0.74,1.07,6.08,14.92,-39.37,65100.0,0,1,0,1,0,0
16265 E Hamilton Pl,Aurora,80013,4,2,2048,2775.0,39.65399,-104.79861,Adams-Arapahoe 28J School District,396560.0,77.81,16.37,5.28,55.53,0.74,1.07,6.08,14.92,-39.37,65100.0,0,1,0,1,0,0
3770 S Jebel Way,Aurora,80013,4,3,2182,2699.0,39.64782,-104.75018,Cherry Creek 5 School District,442894.95,31.32,10.96,8.53,21.0,0.58,0.26,8.19,50.48,-29.53,65100.0,0,1,0,0,1,0
3674 S Cathay St,Aurora,80013,3,3,1826,2525.0,39.64894,-104.76544,Cherry Creek 5 School District,403074.2,31.32,10.96,8.53,21.0,0.58,0.26,8.19,50.48,-29.53,65100.0,1,0,0,0,1,0
4618 S Joplin Way,Aurora,80015,4,3,1836,2544.0,39.6328,-104.80363,Cherry Creek 5 School District,399384.5,31.32,10.96,8.53,21.0,0.58,0.26,8.19,50.48,-29.53,65100.0,0,1,0,0,1,0
4797 S Quintero St,Aurora,80015,4,3,1585,2525.0,39.62973,-104.78688,Cherry Creek 5 School District,384833.65,31.32,10.96,8.53,21.0,0.58,0.26,8.19,50.48,-29.53,65100.0,0,1,0,0,1,0
3597 S Halifax Way,Aurora,80013,3,3,1830,2600.0,39.65118,-104.75496,Cherry Creek 5 School District,424705.0,31.32,10.96,8.53,21.0,0.58,0.26,8.19,50.48,-29.53,65100.0,1,0,0,0,1,0
2464 S Gibralter Way,Aurora,80013,3,3,1582,2510.0,39.67377,-104.75468,Adams-Arapahoe 28J School District,406666.67,77.81,16.37,5.28,55.53,0.74,1.07,6.08,14.92,-39.37,65100.0,1,0,0,0,1,0
18275 E Bellewood Dr,Aurora,80015,3,4,2164,2725.0,39.62502,-104.77515,Cherry Creek 5 School District,402465.0,31.32,10.96,8.53,21.0,0.58,0.26,8.19,50.48,-29.53,65100.0,1,0,0,0,0,1
19775 E Oxford Dr,Aurora,80013,4,3,2049,2737.0,39.642,-104.75932,Cherry Creek 5 School District,398915.0,31.32,10.96,8.53,21.0,0.58,0.26,8.19,50.48,-29.53,65100.0,0,1,0,0,1,0
17574 E Bellewood Cir,Aurora,80015,4,3,2536,3035.0,39.62435,-104.78309,Cherry Creek 5 School District,442340.0,31.32,10.96,8.53,21.0,0.58,0.26,8.19,50.48,-29.53,65100.0,0,1,0,0,1,0
22039 E Princeton Cir,Aurora,80018,3,3,1522,2525.0,39.63974,-104.73039,Cherry Creek 5 School District,452195.0,31.32,10.96,8.53,21.0,0.58,0.26,8.19,50.48,-29.53,65100.0,1,0,0,0,1,0
15883 E Bethany Pl,Aurora,80013,5,3,1860,2425.0,39.66316,-104.80322,Adams-Arapahoe 28J School District,393565.0,77.81,16.37,5.28,55.53,0.74,1.07,6.08,14.92,-39.37,65100.0,0,0,1,0,1,0
11765 Pennsylvania St,Northglenn,80233,3,3,1712,2444.0,39.91001,-104.97954,Adams 12 Five Star Schools,348065.0,47.39,1.91,4.73,47.0,0.55,0.14,3.32,42.36,-23.4,66300.0,1,0,0,0,1,0
11948 Lavinia Way,Northglenn,80233,2,2,1776,2395.0,39.91279,-104.96453,Adams 12 Five Star Schools,424380.0,47.39,1.91,4.73,47.0,0.55,0.14,3.32,42.36,-23.4,66300.0,0,0,0,1,0,0
845 W 101st Pl,Northglenn,80260,3,2,900,2100.0,39.88014,-104.9973,Adams 12 Five Star Schools,413300.0,47.39,1.91,4.73,47.0,0.55,0.14,3.32,42.36,-23.4,66300.0,1,0,0,1,0,0
501 Emery Rd,Northglenn,80233,4,2,1954,2475.0,39.89874,-104.97971,Adams 12 Five Star Schools,411664.85,47.39,1.91,4.73,47.0,0.55,0.14,3.32,42.36,-23.4,66300.0,0,1,0,1,0,0
1257 Bluejay Ave,Brighton,80601,3,2,1110,2179.0,39.9706,-104.83725,Brighton 27J School District,381845.0,44.03,2.2,2.92,53.74,0.31,0.17,3.0,37.65,-48.06,75355.0,1,0,0,1,0,0
1320 Bluebird St,Brighton,80601,3,2,1470,2246.0,39.96678,-104.83774,Brighton 27J School District,386333.33,44.03,2.2,2.92,53.74,0.31,0.17,3.0,37.65,-48.06,75355.0,1,0,0,1,0,0
1361 Mallard Ln,Brighton,80601,3,2,1470,2275.0,39.97163,-104.8379,Brighton 27J School District,325000.0,44.03,2.2,2.92,53.74,0.31,0.17,3.0,37.65,-48.06,75355.0,1,0,0,1,0,0
1492 Hummingbird Cir,Brighton,80601,3,2,1488,2214.0,39.96676,-104.8392,Brighton 27J School District,393685.0,44.03,2.2,2.92,53.74,0.31,0.17,3.0,37.65,-48.06,75355.0,1,0,0,1,0,0
1205 Bluebird St,Brighton,80601,3,2,1470,2325.0,39.9696,-104.83738,Brighton 27J School District,401666.67,44.03,2.2,2.92,53.74,0.31,0.17,3.0,37.65,-48.06,75355.0,1,0,0,1,0,0
12193 Monaco Dr,Brighton,80602,3,2,1809,2500.0,39.91704,-104.91232,Adams 12 Five Star Schools,434475.0,47.39,1.91,4.73,47.0,0.55,0.14,3.32,42.36,-23.4,75355.0,1,0,0,1,0,0
13358 Birch Cir,Denver,80241,3,3,1890,2600.0,39.93781,-104.93588,Adams 12 Five Star Schools,451935.0,47.39,1.91,4.73,47.0,0.55,0.14,3.32,42.36,-23.4,68592.0,1,0,0,0,1,0
4323 Nepal St,Denver,80249,4,2,1740,2335.0,39.77612,-104.74077,Denver County 1 School District,363333.33,65.04,12.19,2.77,53.59,0.71,0.4,3.71,26.62,-34.32,68592.0,0,1,0,1,0,0
4810 Flanders Way,Denver,80249,4,3,1858,2350.0,39.78436,-104.76084,Denver County 1 School District,462966.67,65.04,12.19,2.77,53.59,0.71,0.4,3.71,26.62,-34.32,68592.0,0,1,0,0,1,0
527 Leona Dr,Denver,80221,3,3,1188,2425.0,39.84392,-104.99356,Adams 12 Five Star Schools,471616.67,47.39,1.91,4.73,47.0,0.55,0.14,3.32,42.36,-23.4,68592.0,1,0,0,0,1,0
4139 Orleans St,Denver,80249,2,3,1400,2249.0,39.77396,-104.73851,Denver County 1 School District,364716.75,65.04,12.19,2.77,53.59,0.71,0.4,3.71,26.62,-34.32,68592.0,0,0,0,0,1,0
4926 Fraser Way,Denver,80239,4,3,2587,2831.0,39.78129,-104.81126,Denver County 1 School District,431933.33,65.04,12.19,2.77,53.59,0.71,0.4,3.71,26.62,-34.32,68592.0,0,1,0,0,1,0
4338 Deephaven Ct,Denver,80239,4,3,2247,2725.0,39.77565,-104.82321,Denver County 1 School District,410999.67,65.04,12.19,2.77,53.59,0.71,0.4,3.71,26.62,-34.32,68592.0,0,1,0,0,1,0
8610 Ogden St,Denver,80229,3,3,2528,2745.0,39.85345,-104.97501,Adams 12 Five Star Schools,330000.0,47.39,1.91,4.73,47.0,0.55,0.14,3.32,42.36,-23.4,68592.0,1,0,0,0,1,0
5174 Sable St,Denver,80239,4,2,1395,2342.0,39.78804,-104.82032,Denver County 1 School District,359666.67,65.04,12.19,2.77,53.59,0.71,0.4,3.71,26.62,-34.32,68592.0,0,1,0,1,0,0
18868 E 52nd Ave,Denver,80249,2,3,1524,2451.0,39.79129,-104.76729,Denver County 1 School District,417966.67,65.04,12.19,2.77,53.59,0.71,0.4,3.71,26.62,-34.32,68592.0,0,0,0,0,1,0
10017 Beach St,Denver,80260,3,2,1320,2330.0,39.87954,-105.01733,Adams 12 Five Star Schools,408633.33,47.39,1.91,4.73,47.0,0.55,0.14,3.32,42.36,-23.4,68592.0,1,0,0,1,0,0
2361 Stacy Dr,Denver,80221,3,2,1650,2350.0,39.84679,-105.01484,Westminster 50 School District,255780.0,80.55,1.94,3.94,74.73,0.68,0.59,2.25,15.88,-19.69,68592.0,1,0,0,1,0,0
2361 Stacy Dr,Denver,80221,3,2,1650,2310.0,39.84679,-105.01484,Westminster 50 School District,266633.33,80.55,1.94,3.94,74.73,0.68,0.59,2.25,15.88,-19.69,68592.0,1,0,0,1,0,0
4672 Biscay St,Denver,80249,4,3,2028,2600.0,39.78063,-104.76357,Denver County 1 School District,383633.33,65.04,12.19,2.77,53.59,0.71,0.4,3.71,26.62,-34.32,68592.0,0,1,0,0,1,0
11644 Community Center Dr Unit # 126,Denver,80233,4,3,2130,2420.0,39.90763,-104.98418,Adams 12 Five Star Schools,323333.33,47.39,1.91,4.73,47.0,0.55,0.14,3.32,42.36,-23.4,68592.0,0,1,0,0,1,0
1360 S Tejon St,Denver,80223,3,2,1887,2880.0,39.692,-105.01143,Denver County 1 School District,439666.67,65.04,12.19,2.77,53.59,0.71,0.4,3.71,26.62,-34.32,68592.0,1,0,0,1,0,0
4326 Wyandot St,Denver,80211,3,2,1752,2850.0,39.776,-105.01437,Denver County 1 School District,684333.33,65.04,12.19,2.77,53.59,0.71,0.4,3.71,26.62,-34.32,68592.0,1,0,0,1,0,0
4751 Carson St,Denver,80239,2,1,1513,2085.0,39.78123,-104.83142,Denver County 1 School District,411666.67,65.04,12.19,2.77,53.59,0.71,0.4,3.71,26.62,-34.32,68592.0,0,0,0,0,0,0
5188 Duluth Ct,Denver,80239,4,2,1576,2305.0,39.78765,-104.8184,Denver County 1 School District,365966.67,65.04,12.19,2.77,53.59,0.71,0.4,3.71,26.62,-34.32,68592.0,0,1,0,1,0,0
5564 Worchester St,Denver,80239,3,2,1680,2375.0,39.79604,-104.83049,Denver County 1 School District,404000.0,65.04,12.19,2.77,53.59,0.71,0.4,3.71,26.62,-34.32,68592.0,1,0,0,1,0,0
21480 E 44th Ave,Denver,80249,3,3,1876,2704.0,39.77735,-104.73886,Denver County 1 School District,414933.33,65.04,12.19,2.77,53.59,0.71,0.4,3.71,26.62,-34.32,68592.0,1,0,0,0,1,0
2280 Mable Ave,Denver,80229,3,1,2450,2195.0,39.84991,-104.9599,Mapleton 1 School District,385000.0,51.25,0.92,1.49,65.61,0.51,0.1,1.73,9.64,-14.8,68592.0,1,0,0,0,0,0
301 S Leyden St,Denver,80224,3,2,1881,2645.0,39.71014,-104.91557,Denver County 1 School District,616895.0,65.04,12.19,2.77,53.59,0.71,0.4,3.71,26.62,-34.32,68592.0,1,0,0,1,0,0
19743 E 49th Ave,Denver,80249,2,3,1524,2395.0,39.78557,-104.75974,Denver County 1 School District,477966.67,65.04,12.19,2.77,53.59,0.71,0.4,3.71,26.62,-34.32,68592.0,0,0,0,0,1,0
4702 Orleans St,Denver,80249,3,3,1709,2490.0,39.7814,-104.73679,Denver County 1 School District,358300.0,65.04,12.19,2.77,53.59,0.71,0.4,3.71,26.62,-34.32,68592.0,1,0,0,0,1,0
3625 Fairfax St,Denver,80207,3,2,1355,2365.0,39.76798,-104.92849,Denver County 1 School District,550100.0,65.04,12.19,2.77,53.59,0.71,0.4,3.71,26.62,-34.32,68592.0,1,0,0,1,0,0
3690 Magnolia St,Denver,80207,3,1,1544,2165.0,39.76843,-104.91145,Denver County 1 School District,489966.67,65.04,12.19,2.77,53.59,0.71,0.4,3.71,26.62,-34.32,68592.0,1,0,0,0,0,0
4642 Malaya St,Denver,80249,3,2,1610,2285.0,39.78064,-104.74189,Denver County 1 School District,381666.67,65.04,12.19,2.77,53.59,0.71,0.4,3.71,26.62,-34.32,68592.0,1,0,0,1,0,0
21103 E 45th Ave,Denver,80249,3,2,1677,2296.0,39.77863,-104.74134,Denver County 1 School District,385000.0,65.04,12.19,2.77,53.59,0.71,0.4,3.71,26.62,-34.32,68592.0,1,0,0,1,0,0
4509 Andes St,Denver,80249,3,3,1650,2460.0,39.77975,-104.77171,Denver County 1 School District,359633.33,65.04,12.19,2.77,53.59,0.71,0.4,3.71,26.62,-34.32,68592.0,1,0,0,0,1,0
4558 Biscay St,Denver,80249,3,2,1799,2385.0,39.7791,-104.76667,Denver County 1 School District,412966.67,65.04,12.19,2.77,53.59,0.71,0.4,3.71,26.62,-34.32,68592.0,1,0,0,1,0,0
5120 Troy St,Denver,80239,3,2,1864,2525.0,39.78991,-104.84171,Denver County 1 School District,384000.0,65.04,12.19,2.77,53.59,0.71,0.4,3.71,26.62,-34.32,68592.0,1,0,0,1,0,0
5120 Troy St,Denver,80239,3,2,1864,2300.0,39.78991,-104.84171,Denver County 1 School District,383540.0,65.04,12.19,2.77,53.59,0.71,0.4,3.71,26.62,-34.32,68592.0,1,0,0,1,0,0
19929 E 47th Dr,Denver,80249,3,3,1754,2567.0,39.78309,-104.75736,Denver County 1 School District,409705.9,65.04,12.19,2.77,53.59,0.71,0.4,3.71,26.62,-34.32,68592.0,1,0,0,0,1,0
1965 Rosemary St,Denver,80220,3,2,1463,2585.0,39.74659,-104.90021,Denver County 1 School District,487900.0,65.04,12.19,2.77,53.59,0.71,0.4,3.71,26.62,-34.32,68592.0,1,0,0,1,0,0
19751 E Bellewood Dr,Centennial,80015,4,3,2307,2900.0,39.62529,-104.75812,Cherry Creek 5 School District,429130.0,31.32,10.96,8.53,21.0,0.58,0.26,8.19,50.48,-29.53,109324.0,0,1,0,0,1,0
4331 S Fundy St,Centennial,80015,4,2,1816,2650.0,39.63676,-104.75775,Cherry Creek 5 School District,443298.33,31.32,10.96,8.53,21.0,0.58,0.26,8.19,50.48,-29.53,109324.0,0,1,0,1,0,0
5374 S Telluride Way,Centennial,80015,4,3,2145,2628.0,39.61956,-104.78224,Cherry Creek 5 School District,463300.0,31.32,10.96,8.53,21.0,0.58,0.26,8.19,50.48,-29.53,109324.0,0,1,0,0,1,0
5710 S Quatar Cir,Centennial,80015,3,2,1361,2207.0,39.61232,-104.73445,Cherry Creek 5 School District,455800.0,31.32,10.96,8.53,21.0,0.58,0.26,8.19,50.48,-29.53,109324.0,1,0,0,1,0,0
5842 S Orleans Way,Centennial,80015,3,2,1431,2500.0,39.61056,-104.73639,Cherry Creek 5 School District,451666.67,31.32,10.96,8.53,21.0,0.58,0.26,8.19,50.48,-29.53,109324.0,1,0,0,1,0,0
5431 S Genoa St,Centennial,80015,4,4,2185,2800.0,39.617647,-104.757882,Cherry Creek 5 School District,504880.0,31.32,10.96,8.53,21.0,0.58,0.26,8.19,50.48,-29.53,109324.0,0,1,0,0,0,1
5722 S Netherland St,Centennial,80015,5,2,2314,2810.0,39.61273,-104.73871,Cherry Creek 5 School District,437704.95,31.32,10.96,8.53,21.0,0.58,0.26,8.19,50.48,-29.53,109324.0,0,0,1,1,0,0
5770 S Orleans St,Centennial,80015,4,2,1858,2742.0,39.61092,-104.73749,Cherry Creek 5 School District,432964.95,31.32,10.96,8.53,21.0,0.58,0.26,8.19,50.48,-29.53,109324.0,0,1,0,1,0,0
6486 S Dexter St,Centennial,80121,5,2,2028,2849.0,39.59963,-104.93205,Littleton 6 School District,501260.0,20.79,1.46,2.42,19.47,0.35,0.15,4.69,71.45,-15.7,109324.0,0,0,1,1,0,0
5558 S Ireland Way,Centennial,80015,3,3,1846,2610.0,39.61577,-104.75141,Cherry Creek 5 School District,445810.0,31.32,10.96,8.53,21.0,0.58,0.26,8.19,50.48,-29.53,109324.0,1,0,0,0,1,0
5406 Iris St,Arvada,80002,4,2,1373,2525.0,39.79535,-105.10547,Jefferson County R-1 School District,498000.0,37.16,1.45,2.89,26.14,0.62,0.14,4.07,64.7,-23.29,84717.0,0,1,0,1,0,0
5631 W 71st Cir,Arvada,80003,4,3,1502,2913.0,39.826,-105.06,Jefferson County R-1 School District,482666.67,37.16,1.45,2.89,26.14,0.62,0.14,4.07,64.7,-23.29,84717.0,0,1,0,0,1,0
7178 Urban St,Arvada,80004,3,2,1824,2585.0,39.826,-105.135,Jefferson County R-1 School District,521565.0,37.16,1.45,2.89,26.14,0.62,0.14,4.07,64.7,-23.29,84717.0,1,0,0,1,0,0
7178 Urban St,Arvada,80004,3,2,1824,2645.0,39.826,-105.135,Jefferson County R-1 School District,521565.0,37.16,1.45,2.89,26.14,0.62,0.14,4.07,64.7,-23.29,84717.0,1,0,0,1,0,0
13420 W 73rd Ave,Arvada,80005,3,3,2267,3220.0,39.8295,-105.14905,Jefferson County R-1 School District,571633.33,37.16,1.45,2.89,26.14,0.62,0.14,4.07,64.7,-23.29,84717.0,1,0,0,0,1,0
7375 Braun Way,Arvada,80005,3,3,1967,2845.0,39.83056,-105.15157,Jefferson County R-1 School District,564633.33,37.16,1.45,2.89,26.14,0.62,0.14,4.07,64.7,-23.29,84717.0,1,0,0,0,1,0
8277 Quay Ct,Arvada,80003,4,3,2032,2645.0,39.846,-105.073,Jefferson County R-1 School District,473730.0,37.16,1.45,2.89,26.14,0.62,0.14,4.07,64.7,-23.29,84717.0,0,1,0,0,1,0
8697 W 86th Cir,Arvada,80005,4,2,924,2340.0,39.854,-105.09,Jefferson County R-1 School District,411633.33,37.16,1.45,2.89,26.14,0.62,0.14,4.07,64.7,-23.29,84717.0,0,1,0,1,0,0
4981 N Silverlace Dr,Castle Rock,80109,3,3,2108,2610.0,39.4109,-104.89674,Douglas County RE 1 School District,456633.33,10.78,1.29,4.64,13.59,0.41,0.11,5.69,74.28,10.24,109700.0,1,0,0,0,1,0
3922 Licorice Ct,Castle Rock,80109,3,3,2151,2788.0,39.41599,-104.90481,Douglas County RE 1 School District,449999.67,10.78,1.29,4.64,13.59,0.41,0.11,5.69,74.28,10.24,109700.0,1,0,0,0,1,0
3922 Licorice Ct,Castle Rock,80109,3,3,2151,2895.0,39.41599,-104.90481,Douglas County RE 1 School District,504974.95,10.78,1.29,4.64,13.59,0.41,0.11,5.69,74.28,10.24,109700.0,1,0,0,0,1,0
3591 Morning Glory Dr,Castle Rock,80109,3,3,2172,2768.0,39.41661,-104.89987,Douglas County RE 1 School District,473333.33,10.78,1.29,4.64,13.59,0.41,0.11,5.69,74.28,10.24,109700.0,1,0,0,0,1,0
9809 Castle Ridge Cir,Highlands Ranch,80129,4,3,1838,2765.0,39.53929,-105.01939,Douglas County RE 1 School District,496666.67,10.78,1.29,4.64,13.59,0.41,0.11,5.69,74.28,10.24,125454.0,0,1,0,0,1,0
6362 Freeport Dr,Highlands Ranch,80130,3,2,1882,2595.0,39.55345,-104.9152,Douglas County RE 1 School District,494333.33,10.78,1.29,4.64,13.59,0.41,0.11,5.69,74.28,10.24,125454.0,1,0,0,1,0,0
11027 Chesmore St,Highlands Ranch,80130,3,3,2626,2925.0,39.51553,-104.94105,Douglas County RE 1 School District,665966.67,10.78,1.29,4.64,13.59,0.41,0.11,5.69,74.28,10.24,125454.0,1,0,0,0,1,0
9499 Sherrelwood Ln,Highlands Ranch,80126,4,3,2049,2650.0,39.54443,-104.97537,Douglas County RE 1 School District,551633.33,10.78,1.29,4.64,13.59,0.41,0.11,5.69,74.28,10.24,125454.0,0,1,0,0,1,0
9051 Bermuda Run Cir,Highlands Ranch,80130,3,2,1322,2450.0,39.55173,-104.91204,Douglas County RE 1 School District,457966.67,10.78,1.29,4.64,13.59,0.41,0.11,5.69,74.28,10.24,125454.0,1,0,0,1,0,0
1360 S Kendall St,Lakewood,80232,3,2,1820,2568.0,39.693,-105.065,Jefferson County R-1 School District,466600.0,37.16,1.45,2.89,26.14,0.62,0.14,4.07,64.7,-23.29,66740.0,1,0,0,1,0,0
1840 S Welch Cir,Lakewood,80228,4,3,1955,3175.0,39.684,-105.145,Jefferson County R-1 School District,573790.65,37.16,1.45,2.89,26.14,0.62,0.14,4.07,64.7,-23.29,66740.0,0,1,0,0,1,0
1670 S Allison St,Lakewood,80232,3,2,1860,2899.0,39.68662,-105.08608,Jefferson County R-1 School District,423570.0,37.16,1.45,2.89,26.14,0.62,0.14,4.07,64.7,-23.29,66740.0,1,0,0,1,0,0
7279 Dome Rock Rd,Littleton,80125,3,2,1897,2866.0,39.46731,-105.07512,Douglas County RE 1 School District,579966.67,10.78,1.29,4.64,13.59,0.41,0.11,5.69,74.28,10.24,76015.0,1,0,0,1,0,0
5361 S Hickory St,Littleton,80120,4,2,2250,2700.0,39.61946,-105.00021,Littleton 6 School District,468333.33,20.79,1.46,2.42,19.47,0.35,0.15,4.69,71.45,-15.7,76015.0,0,1,0,1,0,0
9735 Garwood St,Littleton,80125,3,3,1327,2100.0,39.47512,-105.06784,Douglas County RE 1 School District,418333.33,10.78,1.29,4.64,13.59,0.41,0.11,5.69,74.28,10.24,76015.0,1,0,0,0,1,0
13115 Mercury Dr,Littleton,80124,3,2,1769,2599.0,39.55175,-104.89382,Douglas County RE 1 School District,474000.0,10.78,1.29,4.64,13.59,0.41,0.11,5.69,74.28,10.24,76015.0,1,0,0,1,0,0
5677 S Oak St,Littleton,80127,4,2,1808,2700.0,39.613,-105.12,Jefferson County R-1 School District,503333.33,37.16,1.45,2.89,26.14,0.62,0.14,4.07,64.7,-23.29,76015.0,0,1,0,1,0,0
9343 W Capri Ave,Littleton,80123,4,3,1893,2645.0,39.6064,-105.1029,Jefferson County R-1 School District,472282.3,37.16,1.45,2.89,26.14,0.62,0.14,4.07,64.7,-23.29,76015.0,0,1,0,0,1,0
8922 W Radcliffe Pl,Littleton,80123,3,2,2026,2231.0,39.63617,-105.09708,Jefferson County R-1 School District,493885.0,37.16,1.45,2.89,26.14,0.62,0.14,4.07,64.7,-23.29,76015.0,1,0,0,1,0,0
8922 W Radcliffe Pl,Littleton,80123,3,2,2026,2600.0,39.63617,-105.09708,Jefferson County R-1 School District,493885.0,37.16,1.45,2.89,26.14,0.62,0.14,4.07,64.7,-23.29,76015.0,1,0,0,1,0,0
10277 Dusk Way,Littleton,80125,4,3,2100,2765.0,39.4743,-105.07861,Douglas County RE 1 School District,479039.95,10.78,1.29,4.64,13.59,0.41,0.11,5.69,74.28,10.24,76015.0,0,1,0,0,1,0
11798 W Marlowe Ave,Golden,80465,4,3,2404,2900.0,39.632,-105.129,Jefferson County R-1 School District,429937.5,37.16,1.45,2.89,26.14,0.62,0.14,4.07,64.7,-23.29,72349.0,0,1,0,0,1,0
11798 W Marlowe Ave,Golden,80465,4,3,2404,2933.0,39.632,-105.129,Jefferson County R-1 School District,405000.0,37.16,1.45,2.89,26.14,0.62,0.14,4.07,64.7,-23.29,72349.0,0,1,0,0,1,0
7407 Shoreham Dr,Castle Pines,80108,4,3,3528,3431.0,39.47021,-104.89244,Douglas County RE 1 School District,633333.33,10.78,1.29,4.64,13.59,0.41,0.11,5.69,74.28,10.24,163819.0,0,1,0,0,1,0
7407 Shoreham Dr,Castle Pines,80108,4,3,3528,3595.0,39.47021,-104.89244,Douglas County RE 1 School District,633129.35,10.78,1.29,4.64,13.59,0.41,0.11,5.69,74.28,10.24,163819.0,0,1,0,0,1,0
176 Monares Ln,Erie,80516,5,4,2645,2899.0,40.04116,-105.0387,St. Vrain Valley RE 1J School District,454666.67,9.26,0.88,3.58,12.23,0.21,0.07,2.97,80.07,11.8,119555.0,0,0,1,0,0,1
240 Bonanza Dr,Erie,80516,4,3,1997,2915.0,40.00396,-105.03676,St. Vrain Valley RE 1J School District,676633.33,9.26,0.88,3.58,12.23,0.21,0.07,2.97,80.07,11.8,119555.0,0,1,0,0,1,0
2668 Calkins Pl,Broomfield,80020,3,4,1974,2585.0,39.92654,-105.01928,Adams 12 Five Star Schools,481459.5,47.39,1.91,4.73,47.0,0.55,0.14,3.32,42.36,-23.4,96416.0,1,0,0,0,0,1
3280 Queen Ct,Broomfield,80020,3,3,1739,2525.0,39.92959,-105.02897,Adams 12 Five Star Schools,438333.33,47.39,1.91,4.73,47.0,0.55,0.14,3.32,42.36,-23.4,96416.0,1,0,0,0,1,0
